{
"type": "FeatureCollection",
"name": "shanghai商场poi-bd09",
"crs": { "type": "name", "properties": { "name": "urn:ogc:def:crs:OGC:1.3:CRS84" } },
"features": [
{ "type": "Feature", "properties": { "name": "万达广场(上海五角场店)", "lng": 121.520333, "lat": 31.307543, "address": "上海市杨浦区国宾路36号", "field_5": null }, "geometry": { "type": "Point", "coordinates": [ 121.520333, 31.307543 ] } },
{ "type": "Feature", "properties": { "name": "金桥国际商业广场", "lng": 121.585484, "lat": 31.26293, "address": "浦东张杨路3611号", "field_5": null }, "geometry": { "type": "Point", "coordinates": [ 121.585484, 31.26293 ] } },
{ "type": "Feature", "properties": { "name": "凯德龙之梦购物中心", "lng": 121.384964, "lat": 31.113468, "address": "上海市闵行区沪闵路6088号", "field_5": null }, "geometry": { "type": "Point", "coordinates": [ 121.384964, 31.113468 ] } },
{ "type": "Feature", "properties": { "name": "美罗城", "lng": 121.446097, "lat": 31.199257, "address": "上海市徐汇区肇嘉浜路1111号", "field_5": null }, "geometry": { "type": "Point", "coordinates": [ 121.446097, 31.199257 ] } },
{ "type": "Feature", "properties": { "name": "太平洋百货(不夜城店)", "lng": 121.463326, "lat": 31.251338, "address": "天目西路218号", "field_5": null }, "geometry": { "type": "Point", "coordinates": [ 121.463326, 31.251338 ] } },
{ "type": "Feature", "properties": { "name": "久光百货(上海店)", "lng": 121.452627, "lat": 31.230292, "address": "上海市静安区南京西路1618号", "field_5": null }, "geometry": { "type": "Point", "coordinates": [ 121.452627, 31.230292 ] } },
{ "type": "Feature", "properties": { "name": "环贸iapm商场", "lng": 121.464689, "lat": 31.221736, "address": "上海市徐汇区淮海中路999号", "field_5": null }, "geometry": { "type": "Point", "coordinates": [ 121.464689, 31.221736 ] } },
{ "type": "Feature", "properties": { "name": "百联滨江购物中心", "lng": 121.544284, "lat": 31.271184, "address": "上海市杨浦区平凉路1399号", "field_5": null }, "geometry": { "type": "Point", "coordinates": [ 121.544284, 31.271184 ] } },
{ "type": "Feature", "properties": { "name": "上海环球港", "lng": 121.419129, "lat": 31.239446, "address": "上海市普陀区中山北路3300号", "field_5": null }, "geometry": { "type": "Point", "coordinates": [ 121.419129, 31.239446 ] } },
{ "type": "Feature", "properties": { "name": "龙之梦购物公园", "lng": 121.42322, "lat": 31.225328, "address": "长宁路1018号龙之梦购物中心1楼(长宁路凯旋路)", "field_5": null }, "geometry": { "type": "Point", "coordinates": [ 121.42322, 31.225328 ] } },
{ "type": "Feature", "properties": { "name": "日月光中心", "lng": 121.474915, "lat": 31.21296, "address": "上海市黄浦区徐家汇路618号", "field_5": null }, "geometry": { "type": "Point", "coordinates": [ 121.474915, 31.21296 ] } },
{ "type": "Feature", "properties": { "name": "凯德龙之梦购物中心", "lng": 121.384964, "lat": 31.113468, "address": "上海市闵行区沪闵路6088号", "field_5": null }, "geometry": { "type": "Point", "coordinates": [ 121.384964, 31.113468 ] } },
{ "type": "Feature", "properties": { "name": "大悦城(上海)", "lng": 121.478725, "lat": 31.248893, "address": "上海市静安区西藏北路166号", "field_5": null }, "geometry": { "type": "Point", "coordinates": [ 121.478725, 31.248893 ] } },
{ "type": "Feature", "properties": { "name": "百联奥特莱斯品牌直销广场", "lng": 121.234912, "lat": 31.162665, "address": "上海市青浦区沪青平公路2888号", "field_5": null }, "geometry": { "type": "Point", "coordinates": [ 121.234912, 31.162665 ] } },
{ "type": "Feature", "properties": { "name": "百联滨江购物中心", "lng": 121.544284, "lat": 31.271184, "address": "上海市杨浦区平凉路1399号", "field_5": null }, "geometry": { "type": "Point", "coordinates": [ 121.544284, 31.271184 ] } },
{ "type": "Feature", "properties": { "name": "嘉亭荟城市生活广场", "lng": 121.168038, "lat": 31.293464, "address": "上海市嘉定区安亭镇墨玉南路1055号", "field_5": null }, "geometry": { "type": "Point", "coordinates": [ 121.168038, 31.293464 ] } },
{ "type": "Feature", "properties": { "name": "上海青浦吾悦广场", "lng": 121.101782, "lat": 31.150622, "address": "上海市青浦区淀山湖大道218号", "field_5": null }, "geometry": { "type": "Point", "coordinates": [ 121.101782, 31.150622 ] } },
{ "type": "Feature", "properties": { "name": "百联世纪购物中心", "lng": 121.533948, "lat": 31.236066, "address": "上海市浦东新区世纪大道1217号", "field_5": null }, "geometry": { "type": "Point", "coordinates": [ 121.533948, 31.236066 ] } },
{ "type": "Feature", "properties": { "name": "百联西郊购物中心", "lng": 121.377429, "lat": 31.214794, "address": "上海市长宁区仙霞西路88号", "field_5": null }, "geometry": { "type": "Point", "coordinates": [ 121.377429, 31.214794 ] } },
{ "type": "Feature", "properties": { "name": "九六广场", "lng": 121.531321, "lat": 31.233485, "address": "上海市浦东新区东方路796号", "field_5": null }, "geometry": { "type": "Point", "coordinates": [ 121.531321, 31.233485 ] } },
{ "type": "Feature", "properties": { "name": "嘉里城广场", "lng": 121.569875, "lat": 31.219092, "address": "上海市浦东新区芳甸路1155号", "field_5": null }, "geometry": { "type": "Point", "coordinates": [ 121.569875, 31.219092 ] } },
{ "type": "Feature", "properties": { "name": "罗店宝龙广场", "lng": 121.365346, "lat": 31.394697, "address": "上海市宝山区杨南路2211号", "field_5": null }, "geometry": { "type": "Point", "coordinates": [ 121.365346, 31.394697 ] } },
{ "type": "Feature", "properties": { "name": "上海国金中心商场", "lng": 121.508988, "lat": 31.241784, "address": "上海市浦东新区陆家嘴世纪大道八号", "field_5": null }, "geometry": { "type": "Point", "coordinates": [ 121.508988, 31.241784 ] } },
{ "type": "Feature", "properties": { "name": "佛罗伦萨小镇-上海名品奥特莱斯", "lng": 121.770767, "lat": 31.202718, "address": "上海浦东新区卓耀路58弄", "field_5": null }, "geometry": { "type": "Point", "coordinates": [ 121.770767, 31.202718 ] } },
{ "type": "Feature", "properties": { "name": "上海百联中环购物广场", "lng": 121.390627, "lat": 31.2517, "address": "上海市普陀区真光路1228号", "field_5": null }, "geometry": { "type": "Point", "coordinates": [ 121.390627, 31.2517 ] } },
{ "type": "Feature", "properties": { "name": "宝地广场", "lng": 121.518656, "lat": 31.267146, "address": "上海市杨浦区唐山路1018号", "field_5": null }, "geometry": { "type": "Point", "coordinates": [ 121.518656, 31.267146 ] } },
{ "type": "Feature", "properties": { "name": "高岛屋百货", "lng": 121.409747, "lat": 31.203429, "address": "上海市长宁区虹桥路1438号", "field_5": null }, "geometry": { "type": "Point", "coordinates": [ 121.409747, 31.203429 ] } },
{ "type": "Feature", "properties": { "name": "莲花国际广场", "lng": 121.409072, "lat": 31.139509, "address": "上海市闵行区沪闵路7866弄", "field_5": null }, "geometry": { "type": "Point", "coordinates": [ 121.409072, 31.139509 ] } },
{ "type": "Feature", "properties": { "name": "万达广场(上海宝山店)", "lng": 121.453517, "lat": 31.33011, "address": "上海市宝山区一二八纪念路968号", "field_5": null }, "geometry": { "type": "Point", "coordinates": [ 121.453517, 31.33011 ] } },
{ "type": "Feature", "properties": { "name": "百联川沙购物中心", "lng": 121.704356, "lat": 31.191305, "address": "上海市浦东新区川沙路5398号", "field_5": null }, "geometry": { "type": "Point", "coordinates": [ 121.704356, 31.191305 ] } },
{ "type": "Feature", "properties": { "name": "上海奕欧来奥特莱斯", "lng": 121.686884, "lat": 31.145974, "address": "上海市浦东新区申迪东路88号", "field_5": null }, "geometry": { "type": "Point", "coordinates": [ 121.686884, 31.145974 ] } },
{ "type": "Feature", "properties": { "name": "百盛购物中心(淮海店)", "lng": 121.465785, "lat": 31.223763, "address": "上海市黄浦区淮海中路918号", "field_5": null }, "geometry": { "type": "Point", "coordinates": [ 121.465785, 31.223763 ] } },
{ "type": "Feature", "properties": { "name": "大宁国际商业广场", "lng": 121.45882, "lat": 31.280301, "address": "上海市静安区共和新路1878号", "field_5": null }, "geometry": { "type": "Point", "coordinates": [ 121.45882, 31.280301 ] } },
{ "type": "Feature", "properties": { "name": "龙阳广场", "lng": 121.564046, "lat": 31.20932, "address": "上海市浦东新区龙阳路2000号", "field_5": null }, "geometry": { "type": "Point", "coordinates": [ 121.564046, 31.20932 ] } },
{ "type": "Feature", "properties": { "name": "大华虎城嘉年华", "lng": 121.420723, "lat": 31.275987, "address": "上海市宝山区大华一路210号", "field_5": null }, "geometry": { "type": "Point", "coordinates": [ 121.420723, 31.275987 ] } },
{ "type": "Feature", "properties": { "name": "万达广场(上海金山店)", "lng": 121.341587, "lat": 30.760546, "address": "上海市金山区龙皓路1088号", "field_5": null }, "geometry": { "type": "Point", "coordinates": [ 121.341587, 30.760546 ] } },
{ "type": "Feature", "properties": { "name": "百联嘉定购物中心", "lng": 121.284867, "lat": 31.39243, "address": "上海市嘉定区澄浏中路3172号", "field_5": null }, "geometry": { "type": "Point", "coordinates": [ 121.284867, 31.39243 ] } },
{ "type": "Feature", "properties": { "name": "K11购物艺术中心", "lng": 121.480101, "lat": 31.229499, "address": "上海市黄浦区淮海中路300号", "field_5": null }, "geometry": { "type": "Point", "coordinates": [ 121.480101, 31.229499 ] } },
{ "type": "Feature", "properties": { "name": "富荟广场", "lng": 121.551858, "lat": 31.210568, "address": "上海市浦东新区樱花路100号", "field_5": null }, "geometry": { "type": "Point", "coordinates": [ 121.551858, 31.210568 ] } },
{ "type": "Feature", "properties": { "name": "万达广场(上海江桥店)", "lng": 121.330151, "lat": 31.246731, "address": "上海市嘉定区金沙江西路华江路路口", "field_5": null }, "geometry": { "type": "Point", "coordinates": [ 121.330151, 31.246731 ] } },
{ "type": "Feature", "properties": { "name": "文峰广场", "lng": 121.593831, "lat": 31.277512, "address": "上海市浦东新区张杨北路801号", "field_5": null }, "geometry": { "type": "Point", "coordinates": [ 121.593831, 31.277512 ] } },
{ "type": "Feature", "properties": { "name": "万达广场(上海江桥店)", "lng": 121.330151, "lat": 31.246731, "address": "上海市嘉定区金沙江西路华江路路口", "field_5": null }, "geometry": { "type": "Point", "coordinates": [ 121.330151, 31.246731 ] } },
{ "type": "Feature", "properties": { "name": "紫荆广场(江浦路)", "lng": 121.523264, "lat": 31.280863, "address": "上海市杨浦区控江路1688号", "field_5": null }, "geometry": { "type": "Point", "coordinates": [ 121.523264, 31.280863 ] } },
{ "type": "Feature", "properties": { "name": "百联又一城购物中心", "lng": 121.522265, "lat": 31.307328, "address": "上海市杨浦区淞沪路8号", "field_5": null }, "geometry": { "type": "Point", "coordinates": [ 121.522265, 31.307328 ] } },
{ "type": "Feature", "properties": { "name": "富荟广场", "lng": 121.551858, "lat": 31.210568, "address": "上海市浦东新区樱花路100号", "field_5": null }, "geometry": { "type": "Point", "coordinates": [ 121.551858, 31.210568 ] } },
{ "type": "Feature", "properties": { "name": "世博源", "lng": 121.499186, "lat": 31.188984, "address": "上海市浦东新区上南路168号", "field_5": null }, "geometry": { "type": "Point", "coordinates": [ 121.499186, 31.188984 ] } },
{ "type": "Feature", "properties": { "name": "香港广场", "lng": 121.481391, "lat": 31.229578, "address": "上海市黄浦区淮海中路282-283号", "field_5": null }, "geometry": { "type": "Point", "coordinates": [ 121.481391, 31.229578 ] } },
{ "type": "Feature", "properties": { "name": "悦达889商业广场", "lng": 121.435082, "lat": 31.235638, "address": "上海市静安区万航渡路889号", "field_5": null }, "geometry": { "type": "Point", "coordinates": [ 121.435082, 31.235638 ] } },
{ "type": "Feature", "properties": { "name": "缤谷广场", "lng": 121.394043, "lat": 31.219927, "address": "长宁区天山路341号(近地铁2号线威宁路站)", "field_5": null }, "geometry": { "type": "Point", "coordinates": [ 121.394043, 31.219927 ] } },
{ "type": "Feature", "properties": { "name": "中冶祥腾城市广场", "lng": 121.328719, "lat": 31.301813, "address": "上海市嘉定区真南路4368号", "field_5": null }, "geometry": { "type": "Point", "coordinates": [ 121.328719, 31.301813 ] } },
{ "type": "Feature", "properties": { "name": "百联又一城购物中心", "lng": 121.522265, "lat": 31.307328, "address": "上海市杨浦区淞沪路8号", "field_5": null }, "geometry": { "type": "Point", "coordinates": [ 121.522265, 31.307328 ] } },
{ "type": "Feature", "properties": { "name": "悦达889商业广场", "lng": 121.435082, "lat": 31.235638, "address": "上海市静安区万航渡路889号", "field_5": null }, "geometry": { "type": "Point", "coordinates": [ 121.435082, 31.235638 ] } },
{ "type": "Feature", "properties": { "name": "长风大悦城", "lng": 121.401855, "lat": 31.228399, "address": "上海市普陀区大渡河路196号", "field_5": null }, "geometry": { "type": "Point", "coordinates": [ 121.401855, 31.228399 ] } },
{ "type": "Feature", "properties": { "name": "香港广场", "lng": 121.481391, "lat": 31.229578, "address": "上海市黄浦区淮海中路282-283号", "field_5": null }, "geometry": { "type": "Point", "coordinates": [ 121.481391, 31.229578 ] } },
{ "type": "Feature", "properties": { "name": "证大大拇指广场", "lng": 121.566362, "lat": 31.23331, "address": "上海市浦东新区芳甸路185号", "field_5": null }, "geometry": { "type": "Point", "coordinates": [ 121.566362, 31.23331 ] } },
{ "type": "Feature", "properties": { "name": "汇阳广场", "lng": 121.43974, "lat": 31.18063, "address": "上海市徐汇区田林东路75号", "field_5": null }, "geometry": { "type": "Point", "coordinates": [ 121.43974, 31.18063 ] } },
{ "type": "Feature", "properties": { "name": "联洋广场", "lng": 121.564219, "lat": 31.232666, "address": "上海市浦东新区芳甸路300号", "field_5": null }, "geometry": { "type": "Point", "coordinates": [ 121.564219, 31.232666 ] } },
{ "type": "Feature", "properties": { "name": "上海市第一百货商店(南京东路店)", "lng": 121.481307, "lat": 31.241381, "address": "上海市黄浦区南京东路830号", "field_5": null }, "geometry": { "type": "Point", "coordinates": [ 121.481307, 31.241381 ] } },
{ "type": "Feature", "properties": { "name": "绿地金御广场", "lng": 121.346587, "lat": 31.094329, "address": "上海市松江区新南路989弄", "field_5": null }, "geometry": { "type": "Point", "coordinates": [ 121.346587, 31.094329 ] } },
{ "type": "Feature", "properties": { "name": "恒隆广场", "lng": 121.460231, "lat": 31.234129, "address": "南京西路1266号恒隆广场", "field_5": null }, "geometry": { "type": "Point", "coordinates": [ 121.460231, 31.234129 ] } },
{ "type": "Feature", "properties": { "name": "上海奕欧来奥特莱斯", "lng": 121.686884, "lat": 31.145974, "address": "上海市浦东新区申迪东路88号", "field_5": null }, "geometry": { "type": "Point", "coordinates": [ 121.686884, 31.145974 ] } },
{ "type": "Feature", "properties": { "name": "利通广场", "lng": 121.491368, "lat": 31.258686, "address": "上海市虹口区四川北路1350号", "field_5": null }, "geometry": { "type": "Point", "coordinates": [ 121.491368, 31.258686 ] } },
{ "type": "Feature", "properties": { "name": "弘基文化休闲广场", "lng": 121.392804, "lat": 31.321126, "address": "上海市宝山区聚丰园路55号", "field_5": null }, "geometry": { "type": "Point", "coordinates": [ 121.392804, 31.321126 ] } },
{ "type": "Feature", "properties": { "name": "汇金百货", "lng": 121.446693, "lat": 31.201698, "address": "上海市徐汇区肇嘉浜路1000号", "field_5": null }, "geometry": { "type": "Point", "coordinates": [ 121.446693, 31.201698 ] } },
{ "type": "Feature", "properties": { "name": "东方商厦(嘉定店)", "lng": 121.254938, "lat": 31.386123, "address": "上海市嘉定区城中路66号", "field_5": null }, "geometry": { "type": "Point", "coordinates": [ 121.254938, 31.386123 ] } },
{ "type": "Feature", "properties": { "name": "大华锦绣嘉年华", "lng": 121.540242, "lat": 31.185566, "address": "上海市浦东新区成山路1961号", "field_5": null }, "geometry": { "type": "Point", "coordinates": [ 121.540242, 31.185566 ] } },
{ "type": "Feature", "properties": { "name": "万达广场(上海金山店)", "lng": 121.341587, "lat": 30.760546, "address": "上海市金山区龙皓路1088号", "field_5": null }, "geometry": { "type": "Point", "coordinates": [ 121.341587, 30.760546 ] } },
{ "type": "Feature", "properties": { "name": "新大陆广场", "lng": 121.525432, "lat": 31.235039, "address": "上海市浦东新区南泉北路528号", "field_5": null }, "geometry": { "type": "Point", "coordinates": [ 121.525432, 31.235039 ] } },
{ "type": "Feature", "properties": { "name": "壹丰广场", "lng": 121.490268, "lat": 31.258314, "address": "虹口区四川北路1363号(近武进路)", "field_5": null }, "geometry": { "type": "Point", "coordinates": [ 121.490268, 31.258314 ] } },
{ "type": "Feature", "properties": { "name": "818广场", "lng": 121.467365, "lat": 31.237312, "address": "上海市静安区南京西路818号", "field_5": null }, "geometry": { "type": "Point", "coordinates": [ 121.467365, 31.237312 ] } },
{ "type": "Feature", "properties": { "name": "百联川沙购物中心", "lng": 121.704356, "lat": 31.191305, "address": "上海市浦东新区川沙路5398号", "field_5": null }, "geometry": { "type": "Point", "coordinates": [ 121.704356, 31.191305 ] } },
{ "type": "Feature", "properties": { "name": "湖滨道购物中心", "lng": 121.485604, "lat": 31.226844, "address": "上海市黄浦区吉安路20弄-4号", "field_5": null }, "geometry": { "type": "Point", "coordinates": [ 121.485604, 31.226844 ] } },
{ "type": "Feature", "properties": { "name": "连城商业广场", "lng": 121.437859, "lat": 30.995473, "address": "上海市奉贤区沪杭公路228号", "field_5": null }, "geometry": { "type": "Point", "coordinates": [ 121.437859, 30.995473 ] } },
{ "type": "Feature", "properties": { "name": "上海新田360广场华侨城店", "lng": 121.510574, "lat": 31.100725, "address": "上海市闵行区陈行公路2688号", "field_5": null }, "geometry": { "type": "Point", "coordinates": [ 121.510574, 31.100725 ] } },
{ "type": "Feature", "properties": { "name": "巴黎春天", "lng": 121.466017, "lat": 31.222652, "address": "上海市黄浦区淮海中路939号", "field_5": null }, "geometry": { "type": "Point", "coordinates": [ 121.466017, 31.222652 ] } },
{ "type": "Feature", "properties": { "name": "绿色米兰奥特莱斯", "lng": 121.524984, "lat": 31.293995, "address": "上海市杨浦区国权路39号", "field_5": null }, "geometry": { "type": "Point", "coordinates": [ 121.524984, 31.293995 ] } },
{ "type": "Feature", "properties": { "name": "红太阳商业广场", "lng": 121.452289, "lat": 31.343577, "address": "上海市宝山区通河路535号", "field_5": null }, "geometry": { "type": "Point", "coordinates": [ 121.452289, 31.343577 ] } },
{ "type": "Feature", "properties": { "name": "仙乐都生活广场", "lng": 121.411447, "lat": 31.2659, "address": "上海市普陀区曹杨路2212号", "field_5": null }, "geometry": { "type": "Point", "coordinates": [ 121.411447, 31.2659 ] } },
{ "type": "Feature", "properties": { "name": "合生新天地", "lng": 121.235487, "lat": 31.157563, "address": "上海市青浦区嘉松中路5999号", "field_5": null }, "geometry": { "type": "Point", "coordinates": [ 121.235487, 31.157563 ] } },
{ "type": "Feature", "properties": { "name": "上海静安嘉里中心", "lng": 121.456091, "lat": 31.230261, "address": "上海市静安区南京西路1515号", "field_5": null }, "geometry": { "type": "Point", "coordinates": [ 121.456091, 31.230261 ] } },
{ "type": "Feature", "properties": { "name": "丰尚国际广场", "lng": 121.28843, "lat": 31.20893, "address": "上海市闵行区运乐路569号", "field_5": null }, "geometry": { "type": "Point", "coordinates": [ 121.28843, 31.20893 ] } },
{ "type": "Feature", "properties": { "name": "绿地金御广场", "lng": 121.346587, "lat": 31.094329, "address": "上海市松江区新南路989弄", "field_5": null }, "geometry": { "type": "Point", "coordinates": [ 121.346587, 31.094329 ] } },
{ "type": "Feature", "properties": { "name": "梅陇镇伊势丹", "lng": 121.463675, "lat": 31.235249, "address": "上海市静安区南京西路1038号", "field_5": null }, "geometry": { "type": "Point", "coordinates": [ 121.463675, 31.235249 ] } },
{ "type": "Feature", "properties": { "name": "仙乐斯广场", "lng": 121.4755, "lat": 31.237537, "address": "上海市黄浦区南京西路388号", "field_5": null }, "geometry": { "type": "Point", "coordinates": [ 121.4755, 31.237537 ] } },
{ "type": "Feature", "properties": { "name": "巴黎春天", "lng": 121.542205, "lat": 31.185173, "address": "上海市浦东新区成山路1993号3楼", "field_5": null }, "geometry": { "type": "Point", "coordinates": [ 121.542205, 31.185173 ] } },
{ "type": "Feature", "properties": { "name": "百盛购物中心(莘庄店)", "lng": 121.393674, "lat": 31.11277, "address": "上海市闵行区都市路5001号", "field_5": null }, "geometry": { "type": "Point", "coordinates": [ 121.393674, 31.11277 ] } },
{ "type": "Feature", "properties": { "name": "长青生活广场", "lng": 121.544103, "lat": 31.169356, "address": "上海市浦东新区高青路3278号", "field_5": null }, "geometry": { "type": "Point", "coordinates": [ 121.544103, 31.169356 ] } },
{ "type": "Feature", "properties": { "name": "恒隆广场", "lng": 121.460231, "lat": 31.234129, "address": "南京西路1266号恒隆广场", "field_5": null }, "geometry": { "type": "Point", "coordinates": [ 121.460231, 31.234129 ] } },
{ "type": "Feature", "properties": { "name": "长风大悦城", "lng": 121.401855, "lat": 31.228399, "address": "上海市普陀区大渡河路196号", "field_5": null }, "geometry": { "type": "Point", "coordinates": [ 121.401855, 31.228399 ] } },
{ "type": "Feature", "properties": { "name": "正大生活馆(杨高中路店)", "lng": 121.560716, "lat": 31.237635, "address": "上海市浦东新区杨高中路2124号", "field_5": null }, "geometry": { "type": "Point", "coordinates": [ 121.560716, 31.237635 ] } },
{ "type": "Feature", "properties": { "name": "益丰·外滩源", "lng": 121.495876, "lat": 31.246211, "address": "上海市黄浦区北京东路99号", "field_5": null }, "geometry": { "type": "Point", "coordinates": [ 121.495876, 31.246211 ] } },
{ "type": "Feature", "properties": { "name": "汇智国际商业中心", "lng": 121.608024, "lat": 31.209131, "address": "上海市金科路3057号", "field_5": null }, "geometry": { "type": "Point", "coordinates": [ 121.608024, 31.209131 ] } },
{ "type": "Feature", "properties": { "name": "长城弘基\/广场", "lng": 121.421781, "lat": 31.243902, "address": "上海市普陀区中山北路3018号", "field_5": null }, "geometry": { "type": "Point", "coordinates": [ 121.421781, 31.243902 ] } },
{ "type": "Feature", "properties": { "name": "乐虹坊精致生活广场", "lng": 121.37824, "lat": 31.182244, "address": "上海市闵行区虹井路288号", "field_5": null }, "geometry": { "type": "Point", "coordinates": [ 121.37824, 31.182244 ] } },
{ "type": "Feature", "properties": { "name": "金杨第一商城", "lng": 121.587995, "lat": 31.256553, "address": "上海市浦东新区金杨路618-628号", "field_5": null }, "geometry": { "type": "Point", "coordinates": [ 121.587995, 31.256553 ] } },
{ "type": "Feature", "properties": { "name": "王子生活馆", "lng": 121.470741, "lat": 31.259948, "address": "上海市静安区中华新路567号", "field_5": null }, "geometry": { "type": "Point", "coordinates": [ 121.470741, 31.259948 ] } },
{ "type": "Feature", "properties": { "name": "上海湾", "lng": 121.521352, "lat": 31.232931, "address": "浦东新区浦东南路1138号上海湾广场内(近张杨路)", "field_5": null }, "geometry": { "type": "Point", "coordinates": [ 121.521352, 31.232931 ] } },
{ "type": "Feature", "properties": { "name": "UMAX悠迈生活广场", "lng": 121.522547, "lat": 31.304164, "address": "上海杨浦区四平路2500号", "field_5": null }, "geometry": { "type": "Point", "coordinates": [ 121.522547, 31.304164 ] } },
{ "type": "Feature", "properties": { "name": "如海超市(康汇路店)", "lng": 121.609097, "lat": 31.126662, "address": "康桥镇康汇路200号", "field_5": null }, "geometry": { "type": "Point", "coordinates": [ 121.609097, 31.126662 ] } },
{ "type": "Feature", "properties": { "name": "好爱广场", "lng": 121.404335, "lat": 31.093152, "address": "都市路3825号", "field_5": null }, "geometry": { "type": "Point", "coordinates": [ 121.404335, 31.093152 ] } },
{ "type": "Feature", "properties": { "name": "汇金百货(娄山关路)", "lng": 121.411716, "lat": 31.217457, "address": "上海市长宁区天山路900号", "field_5": null }, "geometry": { "type": "Point", "coordinates": [ 121.411716, 31.217457 ] } },
{ "type": "Feature", "properties": { "name": "亚太盛汇购物广场", "lng": 121.55028, "lat": 31.224658, "address": "上海市浦东新区世纪大道2002号", "field_5": null }, "geometry": { "type": "Point", "coordinates": [ 121.55028, 31.224658 ] } },
{ "type": "Feature", "properties": { "name": "新世界大丸百货", "lng": 121.492149, "lat": 31.244245, "address": "上海市黄浦区南京东路228号", "field_5": null }, "geometry": { "type": "Point", "coordinates": [ 121.492149, 31.244245 ] } },
{ "type": "Feature", "properties": { "name": "中环广场", "lng": 121.479408, "lat": 31.228059, "address": "上海市黄浦区淮海中路381号", "field_5": null }, "geometry": { "type": "Point", "coordinates": [ 121.479408, 31.228059 ] } },
{ "type": "Feature", "properties": { "name": "玫瑰坊", "lng": 121.425166, "lat": 31.225365, "address": "上海市长宁区长宁路890号", "field_5": null }, "geometry": { "type": "Point", "coordinates": [ 121.425166, 31.225365 ] } },
{ "type": "Feature", "properties": { "name": "金桥太茂商业广场", "lng": 121.61486, "lat": 31.272674, "address": "金高路1882号", "field_5": null }, "geometry": { "type": "Point", "coordinates": [ 121.61486, 31.272674 ] } },
{ "type": "Feature", "properties": { "name": "摩立盛汇生活广场", "lng": 121.322561, "lat": 31.153075, "address": "上海市松江区涞寅路350号", "field_5": null }, "geometry": { "type": "Point", "coordinates": [ 121.322561, 31.153075 ] } },
{ "type": "Feature", "properties": { "name": "百盛优客城市广场(天山店)", "lng": 121.409904, "lat": 31.216497, "address": "上海市长宁区天山路789-889号", "field_5": null }, "geometry": { "type": "Point", "coordinates": [ 121.409904, 31.216497 ] } },
{ "type": "Feature", "properties": { "name": "绿地东海岸国际广场", "lng": 121.705459, "lat": 31.189804, "address": "上海市浦东新区川沙路5558弄", "field_5": null }, "geometry": { "type": "Point", "coordinates": [ 121.705459, 31.189804 ] } },
{ "type": "Feature", "properties": { "name": "118广场", "lng": 121.384737, "lat": 31.236909, "address": "上海市普陀区金沙江路1685号", "field_5": null }, "geometry": { "type": "Point", "coordinates": [ 121.384737, 31.236909 ] } },
{ "type": "Feature", "properties": { "name": "森宏购物广场", "lng": 121.498449, "lat": 31.155479, "address": "上海市浦东新区长清路1200号", "field_5": null }, "geometry": { "type": "Point", "coordinates": [ 121.498449, 31.155479 ] } },
{ "type": "Feature", "properties": { "name": "瑞鑫百货", "lng": 121.342861, "lat": 30.733063, "address": "卫清路555号", "field_5": null }, "geometry": { "type": "Point", "coordinates": [ 121.342861, 30.733063 ] } },
{ "type": "Feature", "properties": { "name": "九隆坊生活广场", "lng": 121.525615, "lat": 31.296814, "address": "上海市杨浦区黄兴路1737号", "field_5": null }, "geometry": { "type": "Point", "coordinates": [ 121.525615, 31.296814 ] } },
{ "type": "Feature", "properties": { "name": "华润时代广场", "lng": 121.524192, "lat": 31.232944, "address": "上海市浦东新区张杨路500号", "field_5": null }, "geometry": { "type": "Point", "coordinates": [ 121.524192, 31.232944 ] } },
{ "type": "Feature", "properties": { "name": "舜元天地", "lng": 121.437332, "lat": 31.224741, "address": "上海市长宁区江苏路458号1-3层", "field_5": null }, "geometry": { "type": "Point", "coordinates": [ 121.437332, 31.224741 ] } },
{ "type": "Feature", "properties": { "name": "港隆休闲广场", "lng": 121.120958, "lat": 31.164875, "address": "上海市青浦区盈港路453号", "field_5": null }, "geometry": { "type": "Point", "coordinates": [ 121.120958, 31.164875 ] } },
{ "type": "Feature", "properties": { "name": "鹿都国际购物广场", "lng": 121.241207, "lat": 31.011133, "address": "上海市松江区松汇中路568号", "field_5": null }, "geometry": { "type": "Point", "coordinates": [ 121.241207, 31.011133 ] } },
{ "type": "Feature", "properties": { "name": "汇暻生活广场", "lng": 121.484364, "lat": 31.204865, "address": "上海市黄浦区瞿溪路988号", "field_5": null }, "geometry": { "type": "Point", "coordinates": [ 121.484364, 31.204865 ] } },
{ "type": "Feature", "properties": { "name": "星空广场", "lng": 121.399173, "lat": 31.206435, "address": "上海市长宁区虹桥路1665号", "field_5": null }, "geometry": { "type": "Point", "coordinates": [ 121.399173, 31.206435 ] } },
{ "type": "Feature", "properties": { "name": "福佑商厦", "lng": 121.498312, "lat": 31.233987, "address": "上海市黄浦区福佑路225号", "field_5": null }, "geometry": { "type": "Point", "coordinates": [ 121.498312, 31.233987 ] } },
{ "type": "Feature", "properties": { "name": "虹桥天都", "lng": 121.413841, "lat": 31.215795, "address": "天山路919-1111号", "field_5": null }, "geometry": { "type": "Point", "coordinates": [ 121.413841, 31.215795 ] } },
{ "type": "Feature", "properties": { "name": "亚龙国际广场", "lng": 121.486807, "lat": 31.232997, "address": "黄浦区金陵东路500号(近西藏中路)", "field_5": null }, "geometry": { "type": "Point", "coordinates": [ 121.486807, 31.232997 ] } },
{ "type": "Feature", "properties": { "name": "宝山金街", "lng": 121.452244, "lat": 31.330088, "address": "上海市宝山区128纪念路1000号", "field_5": null }, "geometry": { "type": "Point", "coordinates": [ 121.452244, 31.330088 ] } },
{ "type": "Feature", "properties": { "name": "金鹰国际购物中心(上海店)", "lng": 121.461137, "lat": 31.234987, "address": "上海市静安区陕西北路278号", "field_5": null }, "geometry": { "type": "Point", "coordinates": [ 121.461137, 31.234987 ] } },
{ "type": "Feature", "properties": { "name": "上海桥梓湾购物中心(公园路)", "lng": 121.118955, "lat": 31.154571, "address": "上海市青浦区公园路700号东方商厦内", "field_5": null }, "geometry": { "type": "Point", "coordinates": [ 121.118955, 31.154571 ] } },
{ "type": "Feature", "properties": { "name": "置地广场", "lng": 121.48876, "lat": 31.242012, "address": "上海市黄浦区南京东路409号", "field_5": null }, "geometry": { "type": "Point", "coordinates": [ 121.48876, 31.242012 ] } },
{ "type": "Feature", "properties": { "name": "上海朋联商城", "lng": 121.238748, "lat": 31.202724, "address": "上海市青浦区凤中路118号", "field_5": null }, "geometry": { "type": "Point", "coordinates": [ 121.238748, 31.202724 ] } },
{ "type": "Feature", "properties": { "name": "浦东商场(昌里路)", "lng": 121.498213, "lat": 31.179592, "address": "上海市浦东新区昌里路333号", "field_5": null }, "geometry": { "type": "Point", "coordinates": [ 121.498213, 31.179592 ] } },
{ "type": "Feature", "properties": { "name": "玛雅现代生活广场", "lng": 121.704873, "lat": 31.202316, "address": "上海市浦东新区西市街188号", "field_5": null }, "geometry": { "type": "Point", "coordinates": [ 121.704873, 31.202316 ] } },
{ "type": "Feature", "properties": { "name": "鹿都国际购物广场", "lng": 121.241207, "lat": 31.011133, "address": "上海市松江区松汇中路568号", "field_5": null }, "geometry": { "type": "Point", "coordinates": [ 121.241207, 31.011133 ] } },
{ "type": "Feature", "properties": { "name": "流行线服饰礼品广场", "lng": 121.411883, "lat": 31.245753, "address": "上海市普陀区兰溪路148号", "field_5": null }, "geometry": { "type": "Point", "coordinates": [ 121.411883, 31.245753 ] } },
{ "type": "Feature", "properties": { "name": "腾飞PLAZA", "lng": 121.448827, "lat": 31.194263, "address": "上海市徐汇区天钥桥路333号", "field_5": null }, "geometry": { "type": "Point", "coordinates": [ 121.448827, 31.194263 ] } },
{ "type": "Feature", "properties": { "name": "金桥翡翠坊", "lng": 121.598815, "lat": 31.266647, "address": "上海市浦东新区长岛路1262号(近台儿庄路)", "field_5": null }, "geometry": { "type": "Point", "coordinates": [ 121.598815, 31.266647 ] } },
{ "type": "Feature", "properties": { "name": "金桥太茂商业广场", "lng": 121.61486, "lat": 31.272674, "address": "金高路1882号", "field_5": null }, "geometry": { "type": "Point", "coordinates": [ 121.61486, 31.272674 ] } },
{ "type": "Feature", "properties": { "name": "百联又一城购物中心", "lng": 121.52183, "lat": 31.308114, "address": "上海市杨浦区淞沪路8号", "field_5": null }, "geometry": { "type": "Point", "coordinates": [ 121.52183, 31.308114 ] } },
{ "type": "Feature", "properties": { "name": "东方商厦(百联中环店)", "lng": 121.390578, "lat": 31.251259, "address": "上海市普陀区真光路1288号", "field_5": null }, "geometry": { "type": "Point", "coordinates": [ 121.390578, 31.251259 ] } },
{ "type": "Feature", "properties": { "name": "宝山金街", "lng": 121.452244, "lat": 31.330088, "address": "上海市宝山区128纪念路1000号", "field_5": null }, "geometry": { "type": "Point", "coordinates": [ 121.452244, 31.330088 ] } },
{ "type": "Feature", "properties": { "name": "兴梅路·尚乐坊", "lng": 121.417758, "lat": 31.11096, "address": "梅陇镇莲花南路兴梅路1251号", "field_5": null }, "geometry": { "type": "Point", "coordinates": [ 121.417758, 31.11096 ] } },
{ "type": "Feature", "properties": { "name": "锦江迪生商厦", "lng": 121.466174, "lat": 31.227145, "address": "上海市黄浦区长乐路400号", "field_5": null }, "geometry": { "type": "Point", "coordinates": [ 121.466174, 31.227145 ] } },
{ "type": "Feature", "properties": { "name": "南方休闲广场", "lng": 121.40821, "lat": 31.13973, "address": "梅陇镇沪闵路7388号", "field_5": null }, "geometry": { "type": "Point", "coordinates": [ 121.40821, 31.13973 ] } },
{ "type": "Feature", "properties": { "name": "时装商店", "lng": 121.484074, "lat": 31.241706, "address": "上海市黄浦区南京东路690号南京路步行街(西藏中路)1层", "field_5": null }, "geometry": { "type": "Point", "coordinates": [ 121.484074, 31.241706 ] } },
{ "type": "Feature", "properties": { "name": "百联又一城购物中心", "lng": 121.52183, "lat": 31.308114, "address": "上海市杨浦区淞沪路8号", "field_5": null }, "geometry": { "type": "Point", "coordinates": [ 121.52183, 31.308114 ] } },
{ "type": "Feature", "properties": { "name": "M2香港明都", "lng": 121.496548, "lat": 31.228513, "address": "上海市黄浦区河南南路489号", "field_5": null }, "geometry": { "type": "Point", "coordinates": [ 121.496548, 31.228513 ] } },
{ "type": "Feature", "properties": { "name": "宝华现代城商业街", "lng": 121.461354, "lat": 31.286164, "address": "上海市静安区共和新路2395弄", "field_5": null }, "geometry": { "type": "Point", "coordinates": [ 121.461354, 31.286164 ] } },
{ "type": "Feature", "properties": { "name": "三越商场", "lng": 121.466379, "lat": 31.225998, "address": "茂名南路58号花园饭店1层", "field_5": null }, "geometry": { "type": "Point", "coordinates": [ 121.466379, 31.225998 ] } },
{ "type": "Feature", "properties": { "name": "鹿王羊绒工厂店(汶水路店)", "lng": 121.432252, "lat": 31.295084, "address": "汶水路857号2幢", "field_5": null }, "geometry": { "type": "Point", "coordinates": [ 121.432252, 31.295084 ] } }
]
}
